{
  "source": "Global Wind Atlas 3.0, Spanish Wind Energy Association (AEE), Red Eléctrica de España",
  "metadata": {
    "region": "Basque Country, Northern Spain",
    "measurement_height": "100m above ground",
    "notes": "Basque Country has moderate coastal winds and good highland wind resources"
  },
  "locations": [
    {
      "name": "Bilbao City Center",
      "lat": 43.263,
      "lon": -2.935,
      "elevation_m": 19,
      "wind_speed_ms": 4.2,
      "wind_power_density_wm2": 135,
      "viability": "low",
      "notes": "Urban area, sheltered by mountains"
    },
    {
      "name": "Coastal Area (Getxo/Sopelana)",
      "lat": 43.385,
      "lon": -2.980,
      "elevation_m": 50,
      "wind_speed_ms": 6.8,
      "wind_power_density_wm2": 320,
      "viability": "moderate",
      "notes": "Bay of Biscay coastline, good exposure"
    },
    {
      "name": "Gorbea Massif",
      "lat": 43.02,
      "lon": -2.755,
      "elevation_m": 1481,
      "wind_speed_ms": 8.5,
      "wind_power_density_wm2": 550,
      "viability": "high",
      "notes": "Highest peak in Basque Country, excellent wind resource"
    },
    {
      "name": "Oiz Mountain",
      "lat": 43.208,
      "lon": -2.628,
      "elevation_m": 1026,
      "wind_speed_ms": 7.9,
      "wind_power_density_wm2": 480,
      "viability": "high",
      "notes": "Major wind farm location, operational since 1995"
    },
    {
      "name": "Elgea-Urkilla",
      "lat": 42.982,
      "lon": -2.485,
      "elevation_m": 1240,
      "wind_speed_ms": 8.2,
      "wind_power_density_wm2": 520,
      "viability": "high",
      "notes": "Large wind farm complex, 160+ MW installed"
    },
    {
      "name": "Coastal Plains (Mungia)",
      "lat": 43.355,
      "lon": -2.845,
      "elevation_m": 80,
      "wind_speed_ms": 5.5,
      "wind_power_density_wm2": 210,
      "viability": "moderate",
      "notes": "Rolling terrain, moderate wind potential"
    }
  ],
  "existing_wind_farms": [
    {
      "name": "Elgea-Urkilla Wind Farm Complex",
      "location": "Alava/Gipuzkoa border",
      "lat": 42.982,
      "lon": -2.485,
      "capacity_mw": 160,
      "turbines": 87,
      "operational_since": 2000,
      "operator": "Iberdrola Renovables"
    },
    {
      "name": "Oiz Wind Farm",
      "location": "Oiz Mountain, Biscay",
      "lat": 43.208,
      "lon": -2.628,
      "capacity_mw": 30,
      "turbines": 20,
      "operational_since": 1995,
      "operator": "EDP Renewables",
      "notes": "One of Spain's earliest commercial wind farms"
    },
    {
      "name": "Badaia Wind Farm",
      "location": "Alava",
      "lat": 42.925,
      "lon": -2.620,
      "capacity_mw": 50.6,
      "turbines": 23,
      "operational_since": 2009,
      "operator": "Iberdrola"
    }
  ],
  "total_installed_capacity_basque_country_mw": 156,
  "references": [
    "Global Wind Atlas 3.0 - DTU Wind Energy",
    "Spanish Wind Energy Association (AEE) Annual Report 2023",
    "Red Eléctrica de España - Wind Power Statistics",
    "Basque Energy Board (EVE) - Wind Resource Assessment"
  ]
}
